Id,Latitude,Longitude,Title,Subtitle, Location
1,-34.600677504040895, -58.387263729958455, CEGYR, Centro Fertilidad, 1
2,-34.58070285263448, -58.43026097362766, CER, Centro Fertilidad, 1
3,-34.578846588221204, -58.46010393197798, CIMER, Centro Fertilidad, 1
4,-34.59925473372724, -58.40181033949003, CRECER, Centro Fertilidad, 1
5,-34.59743905645921, -58.39718927947347, HIALITUS, Centro Fertilidad, 1
6,-34.6062022234174, -58.425645264604945, Hospital Italiano, Centro Fertilidad, 1
7,-34.596689236707874, -58.39973481534347, IFER, Centro Fertilidad, 2
8,-34.55712898207461, -58.44761812883586, WEFIV, Centro Fertilidad, 3
